<?xml version="1.0" encoding="UTF-8"?>
<kml xmlns="http://earth.google.com/kml/2.1">
<Document>
	<name><![CDATA[List of United States Air Force installations]]></name>
	<open>1</open>
	<Folder>
		<name><![CDATA[United States Active Duty]]></name>
		<open>1</open>
		<Placemark>
			<name><![CDATA[Altus AFB]]></name>
			<Point>
				<coordinates>-99.2680555555555,34.6663888888889,0</coordinates>
			</Point>
			<Snippet></Snippet>
			<description><![CDATA[<br>Source: Wikipedia article <a href="https://en.wikipedia.org/wiki/List_of_United_States_Air_Force_installations#cite_ref-puertorico2011_1-0">List of United States Air Force installations</a>]]></description>
		</Placemark>
		<Placemark>
			<name><![CDATA[Arnold AFB]]></name>
			<Point>
				<coordinates>-86.0858333333333,35.3925,0</coordinates>
			</Point>
			<Snippet></Snippet>
			<description><![CDATA[<br>Source: Wikipedia article <a href="https://en.wikipedia.org/wiki/List_of_United_States_Air_Force_installations#cite_ref-3">List of United States Air Force installations</a>]]></description>
		</Placemark>
		<Placemark>
			<name><![CDATA[Barksdale AFB]]></name>
			<Point>
				<coordinates>-93.6627777777778,32.5019444444444,0</coordinates>
			</Point>
			<Snippet></Snippet>
			<description><![CDATA[<br>Source: Wikipedia article <a href="https://en.wikipedia.org/wiki/List_of_United_States_Air_Force_installations#cite_ref-4">List of United States Air Force installations</a>]]></description>
		</Placemark>
		<Placemark>
			<name><![CDATA[Beale AFB]]></name>
			<Point>
				<coordinates>-121.436388888889,39.1361111111111,0</coordinates>
			</Point>
			<Snippet></Snippet>
			<description><![CDATA[<br>Source: Wikipedia article <a href="https://en.wikipedia.org/wiki/List_of_United_States_Air_Force_installations#cite_ref-5">List of United States Air Force installations</a>]]></description>
		</Placemark>
		<Placemark>
			<name><![CDATA[Buckley AFB]]></name>
			<Point>
				<coordinates>-104.751666666667,39.7016666666667,0</coordinates>
			</Point>
			<Snippet></Snippet>
			<description><![CDATA[<br>Source: Wikipedia article <a href="https://en.wikipedia.org/wiki/List_of_United_States_Air_Force_installations#cite_ref-6">List of United States Air Force installations</a>]]></description>
		</Placemark>
		<Placemark>
			<name><![CDATA[Cannon AFB]]></name>
			<Point>
				<coordinates>-103.322222222222,34.3827777777778,0</coordinates>
			</Point>
			<Snippet></Snippet>
			<description><![CDATA[<br>Source: Wikipedia article <a href="https://en.wikipedia.org/wiki/List_of_United_States_Air_Force_installations#cite_ref-7">List of United States Air Force installations</a>]]></description>
		</Placemark>
		<Placemark>
			<name><![CDATA[Cavalier AFS]]></name>
			<Point>
				<coordinates>-97.9044444444445,48.7319444444444,0</coordinates>
			</Point>
			<Snippet></Snippet>
			<description><![CDATA[<br>Source: Wikipedia article <a href="https://en.wikipedia.org/wiki/List_of_United_States_Air_Force_installations#cite_ref-8">List of United States Air Force installations</a>]]></description>
		</Placemark>
		<Placemark>
			<name><![CDATA[Columbus AFB]]></name>
			<Point>
				<coordinates>-88.4438888888889,33.6438888888889,0</coordinates>
			</Point>
			<Snippet></Snippet>
			<description><![CDATA[<br>Source: Wikipedia article <a href="https://en.wikipedia.org/wiki/List_of_United_States_Air_Force_installations#cite_ref-9">List of United States Air Force installations</a>]]></description>
		</Placemark>
		<Placemark>
			<name><![CDATA[Creech AFB]]></name>
			<Point>
				<coordinates>-115.673333333333,36.5872222222222,0</coordinates>
			</Point>
			<Snippet></Snippet>
			<description><![CDATA[<br>Source: Wikipedia article <a href="https://en.wikipedia.org/wiki/List_of_United_States_Air_Force_installations#cite_ref-10">List of United States Air Force installations</a>]]></description>
		</Placemark>
		<Placemark>
			<name><![CDATA[Davis–Monthan AFB]]></name>
			<Point>
				<coordinates>-110.883055555556,32.1663888888889,0</coordinates>
			</Point>
			<Snippet></Snippet>
			<description><![CDATA[<br>Source: Wikipedia article <a href="https://en.wikipedia.org/wiki/List_of_United_States_Air_Force_installations#cite_ref-11">List of United States Air Force installations</a>]]></description>
		</Placemark>
		<Placemark>
			<name><![CDATA[Dover AFB]]></name>
			<Point>
				<coordinates>-75.4647222222222,39.1283333333333,0</coordinates>
			</Point>
			<Snippet></Snippet>
			<description><![CDATA[<br>Source: Wikipedia article <a href="https://en.wikipedia.org/wiki/List_of_United_States_Air_Force_installations#cite_ref-12">List of United States Air Force installations</a>]]></description>
		</Placemark>
		<Placemark>
			<name><![CDATA[Dyess AFB]]></name>
			<Point>
				<coordinates>-99.8547222222222,32.4208333333333,0</coordinates>
			</Point>
			<Snippet></Snippet>
			<description><![CDATA[<br>Source: Wikipedia article <a href="https://en.wikipedia.org/wiki/List_of_United_States_Air_Force_installations#cite_ref-13">List of United States Air Force installations</a>]]></description>
		</Placemark>
		<Placemark>
			<name><![CDATA[Edwards AFB]]></name>
			<Point>
				<coordinates>-117.883611111111,34.9055555555556,0</coordinates>
			</Point>
			<Snippet></Snippet>
			<description><![CDATA[<br>Source: Wikipedia article <a href="https://en.wikipedia.org/wiki/List_of_United_States_Air_Force_installations#cite_ref-14">List of United States Air Force installations</a>]]></description>
		</Placemark>
		<Placemark>
			<name><![CDATA[McConnell AFB]]></name>
			<Point>
				<coordinates>-86.5333333333333,30.4833333333333,0</coordinates>
			</Point>
			<Snippet></Snippet>
			<description><![CDATA[<br>Source: Wikipedia article <a href="https://en.wikipedia.org/wiki/List_of_United_States_Air_Force_installations#cite_ref-cambell_afftc_16-0">List of United States Air Force installations</a>]]></description>
		</Placemark>
		<Placemark>
			<name><![CDATA[Ellsworth AFB]]></name>
			<Point>
				<coordinates>-103.103611111111,44.145,0</coordinates>
			</Point>
			<Snippet></Snippet>
			<description><![CDATA[<br>Source: Wikipedia article <a href="https://en.wikipedia.org/wiki/List_of_United_States_Air_Force_installations#cite_ref-17">List of United States Air Force installations</a>]]></description>
		</Placemark>
		<Placemark>
			<name><![CDATA[Francis E. Warren AFB]]></name>
			<Point>
				<coordinates>-104.866944444444,41.1330555555556,0</coordinates>
			</Point>
			<Snippet></Snippet>
			<description><![CDATA[<br>Source: Wikipedia article <a href="https://en.wikipedia.org/wiki/List_of_United_States_Air_Force_installations#cite_ref-18">List of United States Air Force installations</a>]]></description>
		</Placemark>
		<Placemark>
			<name><![CDATA[Fairchild AFB]]></name>
			<Point>
				<coordinates>-117.655555555556,47.615,0</coordinates>
			</Point>
			<Snippet></Snippet>
			<description><![CDATA[<br>Source: Wikipedia article <a href="https://en.wikipedia.org/wiki/List_of_United_States_Air_Force_installations#cite_ref-19">List of United States Air Force installations</a>]]></description>
		</Placemark>
		<Placemark>
			<name><![CDATA[Goodfellow AFB]]></name>
			<Point>
				<coordinates>-100.399039833333,31.429631,0</coordinates>
			</Point>
			<Snippet></Snippet>
			<description><![CDATA[<br>Source: Wikipedia article <a href="https://en.wikipedia.org/wiki/List_of_United_States_Air_Force_installations#cite_ref-22">List of United States Air Force installations</a>]]></description>
		</Placemark>
		<Placemark>
			<name><![CDATA[Grand Forks AFB]]></name>
			<Point>
				<coordinates>-97.4011111111111,47.9611111111111,0</coordinates>
			</Point>
			<Snippet></Snippet>
			<description><![CDATA[<br>Source: Wikipedia article <a href="https://en.wikipedia.org/wiki/List_of_United_States_Air_Force_installations#cite_ref-23">List of United States Air Force installations</a>]]></description>
		</Placemark>
		<Placemark>
			<name><![CDATA[Hanscom AFB]]></name>
			<Point>
				<coordinates>-71.2891666666667,42.47,0</coordinates>
			</Point>
			<Snippet></Snippet>
			<description><![CDATA[<br>Source: Wikipedia article <a href="https://en.wikipedia.org/wiki/List_of_United_States_Air_Force_installations#cite_ref-24">List of United States Air Force installations</a>]]></description>
		</Placemark>
		<Placemark>
			<name><![CDATA[Hill AFB]]></name>
			<Point>
				<coordinates>-111.972777777778,41.1238888888889,0</coordinates>
			</Point>
			<Snippet></Snippet>
			<description><![CDATA[<br>Source: Wikipedia article <a href="https://en.wikipedia.org/wiki/List_of_United_States_Air_Force_installations#cite_ref-25">List of United States Air Force installations</a>]]></description>
		</Placemark>
		<Placemark>
			<name><![CDATA[Holloman AFB]]></name>
			<Point>
				<coordinates>-106.106388888889,32.8525,0</coordinates>
			</Point>
			<Snippet></Snippet>
			<description><![CDATA[<br>Source: Wikipedia article <a href="https://en.wikipedia.org/wiki/List_of_United_States_Air_Force_installations#cite_ref-26">List of United States Air Force installations</a>]]></description>
		</Placemark>
		<Placemark>
			<name><![CDATA[Hurlburt Field]]></name>
			<Point>
				<coordinates>-86.6894444444444,30.4277777777778,0</coordinates>
			</Point>
			<Snippet></Snippet>
			<description><![CDATA[<br>Source: Wikipedia article <a href="https://en.wikipedia.org/wiki/List_of_United_States_Air_Force_installations#cite_ref-27">List of United States Air Force installations</a>]]></description>
		</Placemark>
		<Placemark>
			<name><![CDATA[Keesler AFB]]></name>
			<Point>
				<coordinates>-88.9236111111111,30.4113888888889,0</coordinates>
			</Point>
			<Snippet></Snippet>
			<description><![CDATA[<br>Source: Wikipedia article <a href="https://en.wikipedia.org/wiki/List_of_United_States_Air_Force_installations#cite_ref-28">List of United States Air Force installations</a>]]></description>
		</Placemark>
		<Placemark>
			<name><![CDATA[Kirtland AFB]]></name>
			<Point>
				<coordinates>-106.609166666667,35.0402777777778,0</coordinates>
			</Point>
			<Snippet></Snippet>
			<description><![CDATA[<br>Source: Wikipedia article <a href="https://en.wikipedia.org/wiki/List_of_United_States_Air_Force_installations#cite_ref-29">List of United States Air Force installations</a>]]></description>
		</Placemark>
		<Placemark>
			<name><![CDATA[Laughlin AFB]]></name>
			<Point>
				<coordinates>-100.778055555556,29.3594444444444,0</coordinates>
			</Point>
			<Snippet></Snippet>
			<description><![CDATA[<br>Source: Wikipedia article <a href="https://en.wikipedia.org/wiki/List_of_United_States_Air_Force_installations#cite_ref-30">List of United States Air Force installations</a>]]></description>
		</Placemark>
		<Placemark>
			<name><![CDATA[Little Rock AFB]]></name>
			<Point>
				<coordinates>-92.1463888888889,34.9169444444444,0</coordinates>
			</Point>
			<Snippet></Snippet>
			<description><![CDATA[<br>Source: Wikipedia article <a href="https://en.wikipedia.org/wiki/List_of_United_States_Air_Force_installations#cite_ref-31">List of United States Air Force installations</a>]]></description>
		</Placemark>
		<Placemark>
			<name><![CDATA[Los Angeles AFB]]></name>
			<Point>
				<coordinates>-118.380619444444,33.9191083333333,0</coordinates>
			</Point>
			<Snippet></Snippet>
			<description><![CDATA[<br>Source: Wikipedia article <a href="https://en.wikipedia.org/wiki/List_of_United_States_Air_Force_installations#cite_ref-32">List of United States Air Force installations</a>]]></description>
		</Placemark>
		<Placemark>
			<name><![CDATA[Luke AFB]]></name>
			<Point>
				<coordinates>-112.383055555556,33.535,0</coordinates>
			</Point>
			<Snippet></Snippet>
			<description><![CDATA[<br>Source: Wikipedia article <a href="https://en.wikipedia.org/wiki/List_of_United_States_Air_Force_installations#cite_ref-33">List of United States Air Force installations</a>]]></description>
		</Placemark>
		<Placemark>
			<name><![CDATA[MacDill AFB]]></name>
			<Point>
				<coordinates>-82.5211111111111,27.8494444444444,0</coordinates>
			</Point>
			<Snippet></Snippet>
			<description><![CDATA[<br>Source: Wikipedia article <a href="https://en.wikipedia.org/wiki/List_of_United_States_Air_Force_installations#cite_ref-34">List of United States Air Force installations</a>]]></description>
		</Placemark>
		<Placemark>
			<name><![CDATA[Malmstrom AFB]]></name>
			<Point>
				<coordinates>-111.187222222222,47.5047222222222,0</coordinates>
			</Point>
			<Snippet></Snippet>
			<description><![CDATA[<br>Source: Wikipedia article <a href="https://en.wikipedia.org/wiki/List_of_United_States_Air_Force_installations#cite_ref-35">List of United States Air Force installations</a>]]></description>
		</Placemark>
		<Placemark>
			<name><![CDATA[Maxwell AFB]]></name>
			<Point>
				<coordinates>-86.3625,32.3791666666667,0</coordinates>
			</Point>
			<Snippet></Snippet>
			<description><![CDATA[<br>Source: Wikipedia article <a href="https://en.wikipedia.org/wiki/List_of_United_States_Air_Force_installations#cite_ref-36">List of United States Air Force installations</a>]]></description>
		</Placemark>
		<Placemark>
			<name><![CDATA[McConnell AFB]]></name>
			<Point>
				<coordinates>-97.2672222222222,37.6230555555556,0</coordinates>
			</Point>
			<Snippet></Snippet>
			<description><![CDATA[<br>Source: Wikipedia article <a href="https://en.wikipedia.org/wiki/List_of_United_States_Air_Force_installations#cite_ref-37">List of United States Air Force installations</a>]]></description>
		</Placemark>
		<Placemark>
			<name><![CDATA[Minot AFB]]></name>
			<Point>
				<coordinates>-101.358055555556,48.4158333333333,0</coordinates>
			</Point>
			<Snippet></Snippet>
			<description><![CDATA[<br>Source: Wikipedia article <a href="https://en.wikipedia.org/wiki/List_of_United_States_Air_Force_installations#cite_ref-38">List of United States Air Force installations</a>]]></description>
		</Placemark>
		<Placemark>
			<name><![CDATA[Moody AFB]]></name>
			<Point>
				<coordinates>-83.1927777777778,30.9677777777778,0</coordinates>
			</Point>
			<Snippet></Snippet>
			<description><![CDATA[<br>Source: Wikipedia article <a href="https://en.wikipedia.org/wiki/List_of_United_States_Air_Force_installations#cite_ref-39">List of United States Air Force installations</a>]]></description>
		</Placemark>
		<Placemark>
			<name><![CDATA[Mountain Home AFB]]></name>
			<Point>
				<coordinates>-115.8725,43.0436111111111,0</coordinates>
			</Point>
			<Snippet></Snippet>
			<description><![CDATA[<br>Source: Wikipedia article <a href="https://en.wikipedia.org/wiki/List_of_United_States_Air_Force_installations#cite_ref-40">List of United States Air Force installations</a>]]></description>
		</Placemark>
		<Placemark>
			<name><![CDATA[Nellis AFB]]></name>
			<Point>
				<coordinates>-115.034166666667,36.2361111111111,0</coordinates>
			</Point>
			<Snippet></Snippet>
			<description><![CDATA[<br>Source: Wikipedia article <a href="https://en.wikipedia.org/wiki/List_of_United_States_Air_Force_installations#cite_ref-41">List of United States Air Force installations</a>]]></description>
		</Placemark>
		<Placemark>
			<name><![CDATA[Offutt AFB]]></name>
			<Point>
				<coordinates>-95.9086111111111,41.1194444444444,0</coordinates>
			</Point>
			<Snippet></Snippet>
			<description><![CDATA[<br>Source: Wikipedia article <a href="https://en.wikipedia.org/wiki/List_of_United_States_Air_Force_installations#cite_ref-42">List of United States Air Force installations</a>]]></description>
		</Placemark>
		<Placemark>
			<name><![CDATA[Patrick AFB]]></name>
			<Point>
				<coordinates>-80.61,28.235,0</coordinates>
			</Point>
			<Snippet></Snippet>
			<description><![CDATA[<br>Source: Wikipedia article <a href="https://en.wikipedia.org/wiki/List_of_United_States_Air_Force_installations#cite_ref-43">List of United States Air Force installations</a>]]></description>
		</Placemark>
		<Placemark>
			<name><![CDATA[Peterson AFB]]></name>
			<Point>
				<coordinates>-104.695,38.8236111111111,0</coordinates>
			</Point>
			<Snippet></Snippet>
			<description><![CDATA[<br>Source: Wikipedia article <a href="https://en.wikipedia.org/wiki/List_of_United_States_Air_Force_installations#cite_ref-44">List of United States Air Force installations</a>]]></description>
		</Placemark>
		<Placemark>
			<name><![CDATA[Pope AAF]]></name>
			<Point>
				<coordinates>-79.0144444444445,35.1708333333333,0</coordinates>
			</Point>
			<Snippet></Snippet>
			<description><![CDATA[<br>Source: Wikipedia article <a href="https://en.wikipedia.org/wiki/List_of_United_States_Air_Force_installations#cite_ref-45">List of United States Air Force installations</a>]]></description>
		</Placemark>
		<Placemark>
			<name><![CDATA[Robins AFB]]></name>
			<Point>
				<coordinates>-83.5916666666667,32.64,0</coordinates>
			</Point>
			<Snippet></Snippet>
			<description><![CDATA[<br>Source: Wikipedia article <a href="https://en.wikipedia.org/wiki/List_of_United_States_Air_Force_installations#cite_ref-46">List of United States Air Force installations</a>]]></description>
		</Placemark>
		<Placemark>
			<name><![CDATA[Schriever AFB]]></name>
			<Point>
				<coordinates>-104.525555555556,38.8033333333333,0</coordinates>
			</Point>
			<Snippet></Snippet>
			<description><![CDATA[<br>Source: Wikipedia article <a href="https://en.wikipedia.org/wiki/List_of_United_States_Air_Force_installations#cite_ref-47">List of United States Air Force installations</a>]]></description>
		</Placemark>
		<Placemark>
			<name><![CDATA[Scott AFB]]></name>
			<Point>
				<coordinates>-89.8352777777778,38.5452777777778,0</coordinates>
			</Point>
			<Snippet></Snippet>
			<description><![CDATA[<br>Source: Wikipedia article <a href="https://en.wikipedia.org/wiki/List_of_United_States_Air_Force_installations#cite_ref-48">List of United States Air Force installations</a>]]></description>
		</Placemark>
		<Placemark>
			<name><![CDATA[Seymour Johnson AFB]]></name>
			<Point>
				<coordinates>-77.9605555555556,35.3394444444444,0</coordinates>
			</Point>
			<Snippet></Snippet>
			<description><![CDATA[<br>Source: Wikipedia article <a href="https://en.wikipedia.org/wiki/List_of_United_States_Air_Force_installations#cite_ref-49">List of United States Air Force installations</a>]]></description>
		</Placemark>
		<Placemark>
			<name><![CDATA[Shaw Air Force Base]]></name>
			<Point>
				<coordinates>-80.4727777777778,33.9730555555556,0</coordinates>
			</Point>
			<Snippet></Snippet>
			<description><![CDATA[<br>Source: Wikipedia article <a href="https://en.wikipedia.org/wiki/List_of_United_States_Air_Force_installations#cite_ref-50">List of United States Air Force installations</a>]]></description>
		</Placemark>
		<Placemark>
			<name><![CDATA[Sheppard AFB]]></name>
			<Point>
				<coordinates>-98.4919444444444,33.9888888888889,0</coordinates>
			</Point>
			<Snippet></Snippet>
			<description><![CDATA[<br>Source: Wikipedia article <a href="https://en.wikipedia.org/wiki/List_of_United_States_Air_Force_installations#cite_ref-51">List of United States Air Force installations</a>]]></description>
		</Placemark>
		<Placemark>
			<name><![CDATA[Thule AB]]></name>
			<Point>
				<coordinates>-68.7033333333333,76.5311111111111,0</coordinates>
			</Point>
			<Snippet></Snippet>
			<description><![CDATA[<br>Source: Wikipedia article <a href="https://en.wikipedia.org/wiki/List_of_United_States_Air_Force_installations#cite_ref-52">List of United States Air Force installations</a>]]></description>
		</Placemark>
		<Placemark>
			<name><![CDATA[Tinker AFB]]></name>
			<Point>
				<coordinates>-97.3866666666667,35.4147222222222,0</coordinates>
			</Point>
			<Snippet></Snippet>
			<description><![CDATA[<br>Source: Wikipedia article <a href="https://en.wikipedia.org/wiki/List_of_United_States_Air_Force_installations#cite_ref-53">List of United States Air Force installations</a>]]></description>
		</Placemark>
		<Placemark>
			<name><![CDATA[Travis AFB]]></name>
			<Point>
				<coordinates>-121.9275,38.2627777777778,0</coordinates>
			</Point>
			<Snippet></Snippet>
			<description><![CDATA[<br>Source: Wikipedia article <a href="https://en.wikipedia.org/wiki/List_of_United_States_Air_Force_installations#cite_ref-54">List of United States Air Force installations</a>]]></description>
		</Placemark>
		<Placemark>
			<name><![CDATA[Tyndall AFB]]></name>
			<Point>
				<coordinates>-85.5763888888889,30.0786111111111,0</coordinates>
			</Point>
			<Snippet></Snippet>
			<description><![CDATA[<br>Source: Wikipedia article <a href="https://en.wikipedia.org/wiki/List_of_United_States_Air_Force_installations#cite_ref-55">List of United States Air Force installations</a>]]></description>
		</Placemark>
		<Placemark>
			<name><![CDATA[USAF Academy]]></name>
			<Point>
				<coordinates>-104.858333333333,38.9902777777778,0</coordinates>
			</Point>
			<Snippet></Snippet>
			<description><![CDATA[<br>Source: Wikipedia article <a href="https://en.wikipedia.org/wiki/List_of_United_States_Air_Force_installations#cite_ref-56">List of United States Air Force installations</a>]]></description>
		</Placemark>
		<Placemark>
			<name><![CDATA[Vance ANGB]]></name>
			<Point>
				<coordinates>-97.9172222222222,36.3394444444444,0</coordinates>
			</Point>
			<Snippet></Snippet>
			<description><![CDATA[<br>Source: Wikipedia article <a href="https://en.wikipedia.org/wiki/List_of_United_States_Air_Force_installations#cite_ref-57">List of United States Air Force installations</a>]]></description>
		</Placemark>
		<Placemark>
			<name><![CDATA[Vandenberg AFB]]></name>
			<Point>
				<coordinates>-120.568055555556,34.7325,0</coordinates>
			</Point>
			<Snippet></Snippet>
			<description><![CDATA[<br>Source: Wikipedia article <a href="https://en.wikipedia.org/wiki/List_of_United_States_Air_Force_installations#cite_ref-58">List of United States Air Force installations</a>]]></description>
		</Placemark>
		<Placemark>
			<name><![CDATA[Whiteman AFB]]></name>
			<Point>
				<coordinates>-93.5480555555555,38.7302777777778,0</coordinates>
			</Point>
			<Snippet></Snippet>
			<description><![CDATA[<br>Source: Wikipedia article <a href="https://en.wikipedia.org/wiki/List_of_United_States_Air_Force_installations#cite_ref-59">List of United States Air Force installations</a>]]></description>
		</Placemark>
		<Placemark>
			<name><![CDATA[Wright-Patterson AFB]]></name>
			<Point>
				<coordinates>-84.0494444444444,39.8230555555556,0</coordinates>
			</Point>
			<Snippet></Snippet>
			<description><![CDATA[<br>Source: Wikipedia article <a href="https://en.wikipedia.org/wiki/List_of_United_States_Air_Force_installations#cite_ref-60">List of United States Air Force installations</a>]]></description>
		</Placemark>
	</Folder>
	<Folder>
		<name><![CDATA[DoD Joint Bases (USAF units)]]></name>
		<open>1</open>
		<Placemark>
			<name><![CDATA[JB Anacostia-Bolling]]></name>
			<Point>
				<coordinates>-77.0161111111111,38.8427777777778,0</coordinates>
			</Point>
			<Snippet></Snippet>
			<description><![CDATA[<br>Source: Wikipedia article <a href="https://en.wikipedia.org/wiki/List_of_United_States_Air_Force_installations#cite_ref-pacaf_62-0">List of United States Air Force installations</a>]]></description>
		</Placemark>
		<Placemark>
			<name><![CDATA[Joint Base Andrews]]></name>
			<Point>
				<coordinates>-76.8669444444444,38.8108333333333,0</coordinates>
			</Point>
			<Snippet></Snippet>
			<description><![CDATA[<br>Source: Wikipedia article <a href="https://en.wikipedia.org/wiki/List_of_United_States_Air_Force_installations#cite_ref-afdw_64-0">List of United States Air Force installations</a>]]></description>
		</Placemark>
		<Placemark>
			<name><![CDATA[Joint Base Charleston-AF]]></name>
			<Point>
				<coordinates>-80.0405555555556,32.8986111111111,0</coordinates>
			</Point>
			<Snippet></Snippet>
			<description><![CDATA[<br>Source: Wikipedia article <a href="https://en.wikipedia.org/wiki/List_of_United_States_Air_Force_installations#cite_ref-65">List of United States Air Force installations</a>]]></description>
		</Placemark>
		<Placemark>
			<name><![CDATA[JB Elmendorf-Richardson]]></name>
			<Point>
				<coordinates>-149.806388888889,61.2513888888889,0</coordinates>
			</Point>
			<Snippet></Snippet>
			<description><![CDATA[<br>Source: Wikipedia article <a href="https://en.wikipedia.org/wiki/List_of_United_States_Air_Force_installations#cite_ref-66">List of United States Air Force installations</a>]]></description>
		</Placemark>
		<Placemark>
			<name><![CDATA[Joint Base Langley–Eustis-AF]]></name>
			<Point>
				<coordinates>-76.3605555555555,37.0827777777778,0</coordinates>
			</Point>
			<Snippet></Snippet>
			<description><![CDATA[<br>Source: Wikipedia article <a href="https://en.wikipedia.org/wiki/List_of_United_States_Air_Force_installations#cite_ref-68">List of United States Air Force installations</a>]]></description>
		</Placemark>
		<Placemark>
			<name><![CDATA[Joint Base Lewis-McChord-AF]]></name>
			<Point>
				<coordinates>-122.479444444444,47.1475,0</coordinates>
			</Point>
			<Snippet></Snippet>
			<description><![CDATA[<br>Source: Wikipedia article <a href="https://en.wikipedia.org/wiki/List_of_United_States_Air_Force_installations#cite_ref-69">List of United States Air Force installations</a>]]></description>
		</Placemark>
		<Placemark>
			<name><![CDATA[McGuire AFB]]></name>
			<Point>
				<coordinates>-74.5227777777778,40.0191666666667,0</coordinates>
			</Point>
			<Snippet></Snippet>
			<description><![CDATA[<br>Source: Wikipedia article <a href="https://en.wikipedia.org/wiki/List_of_United_States_Air_Force_installations#cite_ref-71">List of United States Air Force installations</a>]]></description>
		</Placemark>
		<Placemark>
			<name><![CDATA[JB Pearl Harbor-Hickam]]></name>
			<Point>
				<coordinates>-157.958611111111,21.3497222222222,0</coordinates>
			</Point>
			<Snippet></Snippet>
			<description><![CDATA[<br>Source: Wikipedia article <a href="https://en.wikipedia.org/wiki/List_of_United_States_Air_Force_installations#cite_ref-71">List of United States Air Force installations</a>]]></description>
		</Placemark>
		<Placemark>
			<name><![CDATA[JB San Antonio]]></name>
			<Point>
				<coordinates>-98.4488888888889,29.4488888888889,0</coordinates>
			</Point>
			<Snippet></Snippet>
			<description><![CDATA[<br>Source: Wikipedia article <a href="https://en.wikipedia.org/wiki/List_of_United_States_Air_Force_installations#cite_ref-73">List of United States Air Force installations</a>]]></description>
		</Placemark>
		<Placemark>
			<name><![CDATA[Andersen AFB]]></name>
			<Point>
				<coordinates>144.924444444444,13.5811111111111,0</coordinates>
			</Point>
			<Snippet></Snippet>
			<description><![CDATA[<br>Source: Wikipedia article <a href="https://en.wikipedia.org/wiki/List_of_United_States_Air_Force_installations#cite_ref-76">List of United States Air Force installations</a>]]></description>
		</Placemark>
	</Folder>
	<Folder>
		<name><![CDATA[United States Air Forces in Europe – Air Forces Africa]]></name>
		<open>1</open>
		<Placemark>
			<name><![CDATA[Aviano AB]]></name>
			<Point>
				<coordinates>12.5969444444444,46.0313888888889,0</coordinates>
			</Point>
			<Snippet></Snippet>
			<description><![CDATA[<br>Source: Wikipedia article <a href="https://en.wikipedia.org/wiki/List_of_United_States_Air_Force_installations#cite_ref-80">List of United States Air Force installations</a>]]></description>
		</Placemark>
		<Placemark>
			<name><![CDATA[Büchel AB]]></name>
			<Point>
				<coordinates>7.05777777777778,50.1763888888889,0</coordinates>
			</Point>
			<Snippet></Snippet>
			<description><![CDATA[<br>Source: Wikipedia article <a href="https://en.wikipedia.org/wiki/List_of_United_States_Air_Force_installations#cite_ref-81">List of United States Air Force installations</a>]]></description>
		</Placemark>
		<Placemark>
			<name><![CDATA[Chievres AB]]></name>
			<Point>
				<coordinates>3.84374166666667,50.5859944444444,0</coordinates>
			</Point>
			<Snippet></Snippet>
			<description><![CDATA[<br>Source: Wikipedia article <a href="https://en.wikipedia.org/wiki/List_of_United_States_Air_Force_installations#cite_ref-Spangdahlem_Air_Base_82-0">List of United States Air Force installations</a>]]></description>
		</Placemark>
		<Placemark>
			<name><![CDATA[Ghedi AB]]></name>
			<Point>
				<coordinates>10.2801111111111,45.4312694444444,0</coordinates>
			</Point>
			<Snippet></Snippet>
			<description><![CDATA[<br>Source: Wikipedia article <a href="https://en.wikipedia.org/wiki/List_of_United_States_Air_Force_installations#cite_ref-Ramstein_Air_Base_83-0">List of United States Air Force installations</a>]]></description>
		</Placemark>
		<Placemark>
			<name><![CDATA[Incirlik Air Base]]></name>
			<Point>
				<coordinates>35.4258333333333,37.0019444444444,0</coordinates>
			</Point>
			<Snippet></Snippet>
			<description><![CDATA[<br>Source: Wikipedia article <a href="https://en.wikipedia.org/wiki/List_of_United_States_Air_Force_installations#cite_ref-Spangdahlem_Air_Base_82-1">List of United States Air Force installations</a>]]></description>
		</Placemark>
		<Placemark>
			<name><![CDATA[Izmir Air Station]]></name>
			<Point>
				<coordinates>27.1702777777778,38.4575,0</coordinates>
			</Point>
			<Snippet></Snippet>
			<description><![CDATA[<br>Source: Wikipedia article <a href="https://en.wikipedia.org/wiki/List_of_United_States_Air_Force_installations#cite_ref-84">List of United States Air Force installations</a>]]></description>
		</Placemark>
		<Placemark>
			<name><![CDATA[Lajes Field]]></name>
			<Point>
				<coordinates>-27.0905555555556,38.7616666666667,0</coordinates>
			</Point>
			<Snippet></Snippet>
			<description><![CDATA[<br>Source: Wikipedia article <a href="https://en.wikipedia.org/wiki/List_of_United_States_Air_Force_installations#cite_ref-Spangdahlem_Air_Base_82-2">List of United States Air Force installations</a>]]></description>
		</Placemark>
		<Placemark>
			<name><![CDATA[RAF Alconbury]]></name>
			<Point>
				<coordinates>-0.226927777777778,52.3709083333333,0</coordinates>
			</Point>
			<Snippet></Snippet>
			<description><![CDATA[<br>Source: Wikipedia article <a href="https://en.wikipedia.org/wiki/List_of_United_States_Air_Force_installations#cite_ref-88">List of United States Air Force installations</a>]]></description>
		</Placemark>
		<Placemark>
			<name><![CDATA[RAF Fylingdales]]></name>
			<Point>
				<coordinates>-0.670102777777778,54.3578944444444,0</coordinates>
			</Point>
			<Snippet></Snippet>
			<description><![CDATA[<br>Source: Wikipedia article <a href="https://en.wikipedia.org/wiki/List_of_United_States_Air_Force_installations#cite_ref-501csw.usafe.af.mil_91-1">List of United States Air Force installations</a>]]></description>
		</Placemark>
		<Placemark>
			<name><![CDATA[RAF Lakenheath]]></name>
			<Point>
				<coordinates>0.556666666666667,52.4083333333333,0</coordinates>
			</Point>
			<Snippet></Snippet>
			<description><![CDATA[<br>Source: Wikipedia article <a href="https://en.wikipedia.org/wiki/List_of_United_States_Air_Force_installations#cite_ref-501csw.usafe.af.mil_91-2">List of United States Air Force installations</a>]]></description>
		</Placemark>
		<Placemark>
			<name><![CDATA[Menwith Hill]]></name>
			<Point>
				<coordinates>1.6895,54.007875,0</coordinates>
			</Point>
			<Snippet></Snippet>
			<description><![CDATA[<br>Source: Wikipedia article <a href="https://en.wikipedia.org/wiki/List_of_United_States_Air_Force_installations#cite_ref-92">List of United States Air Force installations</a>]]></description>
		</Placemark>
		<Placemark>
			<name><![CDATA[RAF Mildenhall]]></name>
			<Point>
				<coordinates>0.480833333333333,52.365,0</coordinates>
			</Point>
			<Snippet></Snippet>
			<description><![CDATA[<br>Source: Wikipedia article <a href="https://en.wikipedia.org/wiki/List_of_United_States_Air_Force_installations#cite_ref-93">List of United States Air Force installations</a>]]></description>
		</Placemark>
		<Placemark>
			<name><![CDATA[Ramstein AB]]></name>
			<Point>
				<coordinates>7.60225833333333,49.4439166666667,0</coordinates>
			</Point>
			<Snippet></Snippet>
			<description><![CDATA[<br>Source: Wikipedia article <a href="https://en.wikipedia.org/wiki/List_of_United_States_Air_Force_installations#cite_ref-501st_Combat_Support_Wing_Website_90-1">List of United States Air Force installations</a>]]></description>
		</Placemark>
		<Placemark>
			<name><![CDATA[Spangdahlem AB]]></name>
			<Point>
				<coordinates>6.69722222222222,49.9758333333333,0</coordinates>
			</Point>
			<Snippet></Snippet>
			<description><![CDATA[<br>Source: Wikipedia article <a href="https://en.wikipedia.org/wiki/List_of_United_States_Air_Force_installations#cite_ref-97">List of United States Air Force installations</a>]]></description>
		</Placemark>
	</Folder>
	<Folder>
		<name><![CDATA[Pacific Air Forces]]></name>
		<open>1</open>
		<Placemark>
			<name><![CDATA[Eielson AFB]]></name>
			<Point>
				<coordinates>-147.101388888889,64.6655555555556,0</coordinates>
			</Point>
			<Snippet></Snippet>
			<description><![CDATA[<br>Source: Wikipedia article <a href="https://en.wikipedia.org/wiki/List_of_United_States_Air_Force_installations#cite_ref-pacaf_62-1">List of United States Air Force installations</a>]]></description>
		</Placemark>
		<Placemark>
			<name><![CDATA[Kadena AFB]]></name>
			<Point>
				<coordinates>127.769444444444,26.3516666666667,0</coordinates>
			</Point>
			<Snippet></Snippet>
			<description><![CDATA[<br>Source: Wikipedia article <a href="https://en.wikipedia.org/wiki/List_of_United_States_Air_Force_installations#cite_ref-100">List of United States Air Force installations</a>]]></description>
		</Placemark>
		<Placemark>
			<name><![CDATA[Kunsan AB]]></name>
			<Point>
				<coordinates>126.615833333333,35.9036111111111,0</coordinates>
			</Point>
			<Snippet></Snippet>
			<description><![CDATA[<br>Source: Wikipedia article <a href="https://en.wikipedia.org/wiki/List_of_United_States_Air_Force_installations#cite_ref-101">List of United States Air Force installations</a>]]></description>
		</Placemark>
		<Placemark>
			<name><![CDATA[Misawa AB]]></name>
			<Point>
				<coordinates>141.371944444444,40.7052777777778,0</coordinates>
			</Point>
			<Snippet></Snippet>
			<description><![CDATA[<br>Source: Wikipedia article <a href="https://en.wikipedia.org/wiki/List_of_United_States_Air_Force_installations#cite_ref-102">List of United States Air Force installations</a>]]></description>
		</Placemark>
		<Placemark>
			<name><![CDATA[Osan AB]]></name>
			<Point>
				<coordinates>127.029722222222,37.0905555555556,0</coordinates>
			</Point>
			<Snippet></Snippet>
			<description><![CDATA[<br>Source: Wikipedia article <a href="https://en.wikipedia.org/wiki/List_of_United_States_Air_Force_installations#cite_ref-103">List of United States Air Force installations</a>]]></description>
		</Placemark>
		<Placemark>
			<name><![CDATA[Yokota AB]]></name>
			<Point>
				<coordinates>139.348611111111,35.7486111111111,0</coordinates>
			</Point>
			<Snippet></Snippet>
			<description><![CDATA[<br>Source: Wikipedia article <a href="https://en.wikipedia.org/wiki/List_of_United_States_Air_Force_installations#cite_ref-104">List of United States Air Force installations</a>]]></description>
		</Placemark>
	</Folder>
	<Folder>
		<name><![CDATA[United States Air Forces Central]]></name>
		<open>1</open>
		<Placemark>
			<name><![CDATA[Al Dhafra AB]]></name>
			<Point>
				<coordinates>54.5475,24.2480555555556,0</coordinates>
			</Point>
			<Snippet></Snippet>
			<description><![CDATA[<br>Source: Wikipedia article <a href="https://en.wikipedia.org/wiki/List_of_United_States_Air_Force_installations#cite_ref-centaf_106-0">List of United States Air Force installations</a>]]></description>
		</Placemark>
		<Placemark>
			<name><![CDATA[Al Udeid AB]]></name>
			<Point>
				<coordinates>51.3147222222222,25.1172222222222,0</coordinates>
			</Point>
			<Snippet></Snippet>
			<description><![CDATA[<br>Source: Wikipedia article <a href="https://en.wikipedia.org/wiki/List_of_United_States_Air_Force_installations#cite_ref-108">List of United States Air Force installations</a>]]></description>
		</Placemark>
		<Placemark>
			<name><![CDATA[Ali Al Salem AB]]></name>
			<Point>
				<coordinates>47.5205555555556,29.3466666666667,0</coordinates>
			</Point>
			<Snippet></Snippet>
			<description><![CDATA[<br>Source: Wikipedia article <a href="https://en.wikipedia.org/wiki/List_of_United_States_Air_Force_installations#cite_ref-109">List of United States Air Force installations</a>]]></description>
		</Placemark>
		<Placemark>
			<name><![CDATA[Bagram AFLD]]></name>
			<Point>
				<coordinates>69.265,34.9461111111111,0</coordinates>
			</Point>
			<Snippet></Snippet>
			<description><![CDATA[<br>Source: Wikipedia article <a href="https://en.wikipedia.org/wiki/List_of_United_States_Air_Force_installations#cite_ref-110">List of United States Air Force installations</a>]]></description>
		</Placemark>
		<Placemark>
			<name><![CDATA[Kabul IAP]]></name>
			<Point>
				<coordinates>69.2108333333333,34.5655555555556,0</coordinates>
			</Point>
			<Snippet></Snippet>
			<description><![CDATA[<br>Source: Wikipedia article <a href="https://en.wikipedia.org/wiki/List_of_United_States_Air_Force_installations#cite_ref-111">List of United States Air Force installations</a>]]></description>
		</Placemark>
		<Placemark>
			<name><![CDATA[Kandahar AFLD]]></name>
			<Point>
				<coordinates>65.8477777777778,31.5058333333333,0</coordinates>
			</Point>
			<Snippet></Snippet>
			<description><![CDATA[<br>Source: Wikipedia article <a href="https://en.wikipedia.org/wiki/List_of_United_States_Air_Force_installations#cite_ref-438AEW_112-0">List of United States Air Force installations</a>]]></description>
		</Placemark>
		<Placemark>
			<name><![CDATA[Sheik Isa AB]]></name>
			<Point>
				<coordinates>50.5905555555556,25.9180555555556,0</coordinates>
			</Point>
			<Snippet></Snippet>
			<description><![CDATA[<br>Source: Wikipedia article <a href="https://en.wikipedia.org/wiki/List_of_United_States_Air_Force_installations#cite_ref-113">List of United States Air Force installations</a>]]></description>
		</Placemark>
		<Placemark>
			<name><![CDATA[Shindand AB]]></name>
			<Point>
				<coordinates>62.260975,33.3913305555556,0</coordinates>
			</Point>
			<Snippet></Snippet>
			<description><![CDATA[<br>Source: Wikipedia article <a href="https://en.wikipedia.org/wiki/List_of_United_States_Air_Force_installations#cite_ref-113">List of United States Air Force installations</a>]]></description>
		</Placemark>
		<Placemark>
			<name><![CDATA[RAFO Thumrait]]></name>
			<Point>
				<coordinates>54.0244444444444,17.6655555555556,0</coordinates>
			</Point>
			<Snippet></Snippet>
			<description><![CDATA[<br>Source: Wikipedia article <a href="https://en.wikipedia.org/wiki/List_of_United_States_Air_Force_installations#cite_ref-114">List of United States Air Force installations</a>]]></description>
		</Placemark>
		<Placemark>
			<name><![CDATA[Manas TS]]></name>
			<Point>
				<coordinates>74.4694444444444,43.0502777777778,0</coordinates>
			</Point>
			<Snippet></Snippet>
			<description><![CDATA[<br>Source: Wikipedia article <a href="https://en.wikipedia.org/wiki/List_of_United_States_Air_Force_installations#cite_ref-114">List of United States Air Force installations</a>]]></description>
		</Placemark>
	</Folder>
	<Folder>
		<name><![CDATA[Air National Guard & Air Force Reserve]]></name>
		<open>1</open>
		<Placemark>
			<name><![CDATA[Abston ANGS]]></name>
			<Point>
				<coordinates>-86.3466666666667,32.3561111111111,0</coordinates>
			</Point>
			<Snippet></Snippet>
			<description><![CDATA[<br>Source: Wikipedia article <a href="https://en.wikipedia.org/wiki/List_of_United_States_Air_Force_installations#cite_ref-afres_117-0">List of United States Air Force installations</a>]]></description>
		</Placemark>
		<Placemark>
			<name><![CDATA[Atlantic city ANGB]]></name>
			<Point>
				<coordinates>-74.5816666666667,39.4480555555556,0</coordinates>
			</Point>
			<Snippet></Snippet>
			<description><![CDATA[<br>Source: Wikipedia article <a href="https://en.wikipedia.org/wiki/List_of_United_States_Air_Force_installations#cite_ref-118">List of United States Air Force installations</a>]]></description>
		</Placemark>
		<Placemark>
			<name><![CDATA[Bangor ANGB]]></name>
			<Point>
				<coordinates>-68.8308333333333,44.8141666666667,0</coordinates>
			</Point>
			<Snippet></Snippet>
			<description><![CDATA[<br>Source: Wikipedia article <a href="https://en.wikipedia.org/wiki/List_of_United_States_Air_Force_installations#cite_ref-119">List of United States Air Force installations</a>]]></description>
		</Placemark>
		<Placemark>
			<name><![CDATA[Barnes ANGB]]></name>
			<Point>
				<coordinates>-72.7205555555556,42.1655555555556,0</coordinates>
			</Point>
			<Snippet></Snippet>
			<description><![CDATA[<br>Source: Wikipedia article <a href="https://en.wikipedia.org/wiki/List_of_United_States_Air_Force_installations#cite_ref-120">List of United States Air Force installations</a>]]></description>
		</Placemark>
		<Placemark>
			<name><![CDATA[Beightler Armory]]></name>
			<Point>
				<coordinates>-83.0669444444444,40.0883333333333,0</coordinates>
			</Point>
			<Snippet></Snippet>
			<description><![CDATA[<br>Source: Wikipedia article <a href="https://en.wikipedia.org/wiki/List_of_United_States_Air_Force_installations#cite_ref-121">List of United States Air Force installations</a>]]></description>
		</Placemark>
		<Placemark>
			<name><![CDATA[Berry Field ANGB]]></name>
			<Point>
				<coordinates>-86.6819444444445,36.1266666666667,0</coordinates>
			</Point>
			<Snippet></Snippet>
			<description><![CDATA[<br>Source: Wikipedia article <a href="https://en.wikipedia.org/wiki/List_of_United_States_Air_Force_installations#cite_ref-122">List of United States Air Force installations</a>]]></description>
		</Placemark>
		<Placemark>
			<name><![CDATA[Birmingham ANGB]]></name>
			<Point>
				<coordinates>-86.7522222222222,33.5638888888889,0</coordinates>
			</Point>
			<Snippet></Snippet>
			<description><![CDATA[<br>Source: Wikipedia article <a href="https://en.wikipedia.org/wiki/List_of_United_States_Air_Force_installations#cite_ref-123">List of United States Air Force installations</a>]]></description>
		</Placemark>
		<Placemark>
			<name><![CDATA[Bradley ANGB]]></name>
			<Point>
				<coordinates>-72.6833333333333,41.9388888888889,0</coordinates>
			</Point>
			<Snippet></Snippet>
			<description><![CDATA[<br>Source: Wikipedia article <a href="https://en.wikipedia.org/wiki/List_of_United_States_Air_Force_installations#cite_ref-124">List of United States Air Force installations</a>]]></description>
		</Placemark>
		<Placemark>
			<name><![CDATA[Burlington ANGB]]></name>
			<Point>
				<coordinates>-73.1466666666667,44.4727777777778,0</coordinates>
			</Point>
			<Snippet></Snippet>
			<description><![CDATA[<br>Source: Wikipedia article <a href="https://en.wikipedia.org/wiki/List_of_United_States_Air_Force_installations#cite_ref-125">List of United States Air Force installations</a>]]></description>
		</Placemark>
		<Placemark>
			<name><![CDATA[Camp Mabry]]></name>
			<Point>
				<coordinates>-97.7605555555556,30.3177777777778,0</coordinates>
			</Point>
			<Snippet></Snippet>
			<description><![CDATA[<br>Source: Wikipedia article <a href="https://en.wikipedia.org/wiki/List_of_United_States_Air_Force_installations#cite_ref-126">List of United States Air Force installations</a>]]></description>
		</Placemark>
		<Placemark>
			<name><![CDATA[Capital Airport NGS]]></name>
			<Point>
				<coordinates>-89.6780555555556,39.8441666666667,0</coordinates>
			</Point>
			<Snippet></Snippet>
			<description><![CDATA[<br>Source: Wikipedia article <a href="https://en.wikipedia.org/wiki/List_of_United_States_Air_Force_installations#cite_ref-127">List of United States Air Force installations</a>]]></description>
		</Placemark>
		<Placemark>
			<name><![CDATA[Bradley ANGB]]></name>
			<Point>
				<coordinates>-119.110277777778,34.115,0</coordinates>
			</Point>
			<Snippet></Snippet>
			<description><![CDATA[<br>Source: Wikipedia article <a href="https://en.wikipedia.org/wiki/List_of_United_States_Air_Force_installations#cite_ref-128">List of United States Air Force installations</a>]]></description>
		</Placemark>
		<Placemark>
			<name><![CDATA[Charleston ANGB]]></name>
			<Point>
				<coordinates>-81.5930555555556,38.3730555555556,0</coordinates>
			</Point>
			<Snippet></Snippet>
			<description><![CDATA[<br>Source: Wikipedia article <a href="https://en.wikipedia.org/wiki/List_of_United_States_Air_Force_installations#cite_ref-129">List of United States Air Force installations</a>]]></description>
		</Placemark>
		<Placemark>
			<name><![CDATA[Charlotte ANGB]]></name>
			<Point>
				<coordinates>-80.9319444444445,35.2161111111111,0</coordinates>
			</Point>
			<Snippet></Snippet>
			<description><![CDATA[<br>Source: Wikipedia article <a href="https://en.wikipedia.org/wiki/List_of_United_States_Air_Force_installations#cite_ref-130">List of United States Air Force installations</a>]]></description>
		</Placemark>
		<Placemark>
			<name><![CDATA[Cheyenne ANGB]]></name>
			<Point>
				<coordinates>-104.819444444444,41.1613888888889,0</coordinates>
			</Point>
			<Snippet></Snippet>
			<description><![CDATA[<br>Source: Wikipedia article <a href="https://en.wikipedia.org/wiki/List_of_United_States_Air_Force_installations#cite_ref-131">List of United States Air Force installations</a>]]></description>
		</Placemark>
		<Placemark>
			<name><![CDATA[Clear AFS]]></name>
			<Point>
				<coordinates>-149.186944444444,64.2905555555556,0</coordinates>
			</Point>
			<Snippet></Snippet>
			<description><![CDATA[<br>Source: Wikipedia article <a href="https://en.wikipedia.org/wiki/List_of_United_States_Air_Force_installations#cite_ref-132">List of United States Air Force installations</a>]]></description>
		</Placemark>
		<Placemark>
			<name><![CDATA[Gulfport CRTS]]></name>
			<Point>
				<coordinates>-89.07,30.4072222222222,0</coordinates>
			</Point>
			<Snippet></Snippet>
			<description><![CDATA[<br>Source: Wikipedia article <a href="https://en.wikipedia.org/wiki/List_of_United_States_Air_Force_installations#cite_ref-133">List of United States Air Force installations</a>]]></description>
		</Placemark>
		<Placemark>
			<name><![CDATA[Montgomery ANGB]]></name>
			<Point>
				<coordinates>-86.4002777777778,32.3044444444444,0</coordinates>
			</Point>
			<Snippet></Snippet>
			<description><![CDATA[<br>Source: Wikipedia article <a href="https://en.wikipedia.org/wiki/List_of_United_States_Air_Force_installations#cite_ref-134">List of United States Air Force installations</a>]]></description>
		</Placemark>
		<Placemark>
			<name><![CDATA[Muniz ANGB]]></name>
			<Point>
				<coordinates>-66.0019444444444,18.4394444444444,0</coordinates>
			</Point>
			<Snippet></Snippet>
			<description><![CDATA[<br>Source: Wikipedia article <a href="https://en.wikipedia.org/wiki/List_of_United_States_Air_Force_installations#cite_ref-135">List of United States Air Force installations</a>]]></description>
		</Placemark>
		<Placemark>
			<name><![CDATA[Des Moines ANGB]]></name>
			<Point>
				<coordinates>-93.6594444444444,41.5383333333333,0</coordinates>
			</Point>
			<Snippet></Snippet>
			<description><![CDATA[<br>Source: Wikipedia article <a href="https://en.wikipedia.org/wiki/List_of_United_States_Air_Force_installations#cite_ref-137">List of United States Air Force installations</a>]]></description>
		</Placemark>
		<Placemark>
			<name><![CDATA[Dobbins ARB]]></name>
			<Point>
				<coordinates>-84.5163888888889,33.9152777777778,0</coordinates>
			</Point>
			<Snippet></Snippet>
			<description><![CDATA[<br>Source: Wikipedia article <a href="https://en.wikipedia.org/wiki/List_of_United_States_Air_Force_installations#cite_ref-138">List of United States Air Force installations</a>]]></description>
		</Placemark>
		<Placemark>
			<name><![CDATA[Duke Field]]></name>
			<Point>
				<coordinates>-86.5227777777778,30.6502777777778,0</coordinates>
			</Point>
			<Snippet></Snippet>
			<description><![CDATA[<br>Source: Wikipedia article <a href="https://en.wikipedia.org/wiki/List_of_United_States_Air_Force_installations#cite_ref-139">List of United States Air Force installations</a>]]></description>
		</Placemark>
		<Placemark>
			<name><![CDATA[Duluth ANGB]]></name>
			<Point>
				<coordinates>-92.1936111111111,46.8422222222222,0</coordinates>
			</Point>
			<Snippet></Snippet>
			<description><![CDATA[<br>Source: Wikipedia article <a href="https://en.wikipedia.org/wiki/List_of_United_States_Air_Force_installations#cite_ref-140">List of United States Air Force installations</a>]]></description>
		</Placemark>
		<Placemark>
			<name><![CDATA[Ellington Field JRB]]></name>
			<Point>
				<coordinates>-95.1588888888889,29.6072222222222,0</coordinates>
			</Point>
			<Snippet></Snippet>
			<description><![CDATA[<br>Source: Wikipedia article <a href="https://en.wikipedia.org/wiki/List_of_United_States_Air_Force_installations#cite_ref-141">List of United States Air Force installations</a>]]></description>
		</Placemark>
		<Placemark>
			<name><![CDATA[Fargo ANGB]]></name>
			<Point>
				<coordinates>-96.8158333333333,46.9205555555556,0</coordinates>
			</Point>
			<Snippet></Snippet>
			<description><![CDATA[<br>Source: Wikipedia article <a href="https://en.wikipedia.org/wiki/List_of_United_States_Air_Force_installations#cite_ref-142">List of United States Air Force installations</a>]]></description>
		</Placemark>
		<Placemark>
			<name><![CDATA[Forbes Field ANGB]]></name>
			<Point>
				<coordinates>-95.6658333333333,38.9511111111111,0</coordinates>
			</Point>
			<Snippet></Snippet>
			<description><![CDATA[<br>Source: Wikipedia article <a href="https://en.wikipedia.org/wiki/List_of_United_States_Air_Force_installations#cite_ref-143">List of United States Air Force installations</a>]]></description>
		</Placemark>
		<Placemark>
			<name><![CDATA[Fort Smith ANGB]]></name>
			<Point>
				<coordinates>-94.3675,35.3366666666667,0</coordinates>
			</Point>
			<Snippet></Snippet>
			<description><![CDATA[<br>Source: Wikipedia article <a href="https://en.wikipedia.org/wiki/List_of_United_States_Air_Force_installations#cite_ref-144">List of United States Air Force installations</a>]]></description>
		</Placemark>
		<Placemark>
			<name><![CDATA[Fort Wayne ANGS]]></name>
			<Point>
				<coordinates>-85.195,40.9783333333333,0</coordinates>
			</Point>
			<Snippet></Snippet>
			<description><![CDATA[<br>Source: Wikipedia article <a href="https://en.wikipedia.org/wiki/List_of_United_States_Air_Force_installations#cite_ref-145">List of United States Air Force installations</a>]]></description>
		</Placemark>
		<Placemark>
			<name><![CDATA[Francis S. Gabreski ANGB]]></name>
			<Point>
				<coordinates>-72.6422222222222,40.8369444444444,0</coordinates>
			</Point>
			<Snippet></Snippet>
			<description><![CDATA[<br>Source: Wikipedia article <a href="https://en.wikipedia.org/wiki/List_of_United_States_Air_Force_installations#cite_ref-146">List of United States Air Force installations</a>]]></description>
		</Placemark>
		<Placemark>
			<name><![CDATA[Fresno ANGB]]></name>
			<Point>
				<coordinates>-119.730555555556,36.7761111111111,0</coordinates>
			</Point>
			<Snippet></Snippet>
			<description><![CDATA[<br>Source: Wikipedia article <a href="https://en.wikipedia.org/wiki/List_of_United_States_Air_Force_installations#cite_ref-147">List of United States Air Force installations</a>]]></description>
		</Placemark>
		<Placemark>
			<name><![CDATA[Hensley Field]]></name>
			<Point>
				<coordinates>-96.97,32.74,0</coordinates>
			</Point>
			<Snippet></Snippet>
			<description><![CDATA[<br>Source: Wikipedia article <a href="https://en.wikipedia.org/wiki/List_of_United_States_Air_Force_installations#cite_ref-148">List of United States Air Force installations</a>]]></description>
		</Placemark>
		<Placemark>
			<name><![CDATA[General Mitchell ANGB]]></name>
			<Point>
				<coordinates>-87.8966666666667,42.9472222222222,0</coordinates>
			</Point>
			<Snippet></Snippet>
			<description><![CDATA[<br>Source: Wikipedia article <a href="https://en.wikipedia.org/wiki/List_of_United_States_Air_Force_installations#cite_ref-149">List of United States Air Force installations</a>]]></description>
		</Placemark>
		<Placemark>
			<name><![CDATA[Gowen Field ANGB]]></name>
			<Point>
				<coordinates>-116.222777777778,43.5644444444444,0</coordinates>
			</Point>
			<Snippet></Snippet>
			<description><![CDATA[<br>Source: Wikipedia article <a href="https://en.wikipedia.org/wiki/List_of_United_States_Air_Force_installations#cite_ref-150">List of United States Air Force installations</a>]]></description>
		</Placemark>
		<Placemark>
			<name><![CDATA[Great Falls ANGB]]></name>
			<Point>
				<coordinates>-111.370683333333,47.482,0</coordinates>
			</Point>
			<Snippet></Snippet>
			<description><![CDATA[<br>Source: Wikipedia article <a href="https://en.wikipedia.org/wiki/List_of_United_States_Air_Force_installations#cite_ref-151">List of United States Air Force installations</a>]]></description>
		</Placemark>
		<Placemark>
			<name><![CDATA[Grissom ARB]]></name>
			<Point>
				<coordinates>-86.1522222222222,40.6480555555556,0</coordinates>
			</Point>
			<Snippet></Snippet>
			<description><![CDATA[<br>Source: Wikipedia article <a href="https://en.wikipedia.org/wiki/List_of_United_States_Air_Force_installations#cite_ref-151">List of United States Air Force installations</a>]]></description>
		</Placemark>
		<Placemark>
			<name><![CDATA[Hancock Field]]></name>
			<Point>
				<coordinates>-76.1236111111111,43.1113888888889,0</coordinates>
			</Point>
			<Snippet></Snippet>
			<description><![CDATA[<br>Source: Wikipedia article <a href="https://en.wikipedia.org/wiki/List_of_United_States_Air_Force_installations#cite_ref-152">List of United States Air Force installations</a>]]></description>
		</Placemark>
		<Placemark>
			<name><![CDATA[Harrisburg ANGB]]></name>
			<Point>
				<coordinates>-76.7633333333333,40.1936111111111,0</coordinates>
			</Point>
			<Snippet></Snippet>
			<description><![CDATA[<br>Source: Wikipedia article <a href="https://en.wikipedia.org/wiki/List_of_United_States_Air_Force_installations#cite_ref-153">List of United States Air Force installations</a>]]></description>
		</Placemark>
		<Placemark>
			<name><![CDATA[Homestead ARB]]></name>
			<Point>
				<coordinates>-80.3836111111111,25.4883333333333,0</coordinates>
			</Point>
			<Snippet></Snippet>
			<description><![CDATA[<br>Source: Wikipedia article <a href="https://en.wikipedia.org/wiki/List_of_United_States_Air_Force_installations#cite_ref-154">List of United States Air Force installations</a>]]></description>
		</Placemark>
		<Placemark>
			<name><![CDATA[Jackson ANGB]]></name>
			<Point>
				<coordinates>-90.0758333333333,32.3111111111111,0</coordinates>
			</Point>
			<Snippet></Snippet>
			<description><![CDATA[<br>Source: Wikipedia article <a href="https://en.wikipedia.org/wiki/List_of_United_States_Air_Force_installations#cite_ref-155">List of United States Air Force installations</a>]]></description>
		</Placemark>
		<Placemark>
			<name><![CDATA[Jacksonville ANGB]]></name>
			<Point>
				<coordinates>-81.6877777777778,30.4941666666667,0</coordinates>
			</Point>
			<Snippet></Snippet>
			<description><![CDATA[<br>Source: Wikipedia article <a href="https://en.wikipedia.org/wiki/List_of_United_States_Air_Force_installations#cite_ref-156">List of United States Air Force installations</a>]]></description>
		</Placemark>
		<Placemark>
			<name><![CDATA[Joe Foss Field ANGS]]></name>
			<Point>
				<coordinates>-96.7419444444444,43.5819444444444,0</coordinates>
			</Point>
			<Snippet></Snippet>
			<description><![CDATA[<br>Source: Wikipedia article <a href="https://en.wikipedia.org/wiki/List_of_United_States_Air_Force_installations#cite_ref-157">List of United States Air Force installations</a>]]></description>
		</Placemark>
		<Placemark>
			<name><![CDATA[Kellogg ANGB]]></name>
			<Point>
				<coordinates>-85.2514722222222,42.3072777777778,0</coordinates>
			</Point>
			<Snippet></Snippet>
			<description><![CDATA[<br>Source: Wikipedia article <a href="https://en.wikipedia.org/wiki/List_of_United_States_Air_Force_installations#cite_ref-158">List of United States Air Force installations</a>]]></description>
		</Placemark>
		<Placemark>
			<name><![CDATA[Key Field ANGB]]></name>
			<Point>
				<coordinates>-88.7519444444444,32.3325,0</coordinates>
			</Point>
			<Snippet></Snippet>
			<description><![CDATA[<br>Source: Wikipedia article <a href="https://en.wikipedia.org/wiki/List_of_United_States_Air_Force_installations#cite_ref-159">List of United States Air Force installations</a>]]></description>
		</Placemark>
		<Placemark>
			<name><![CDATA[Kingsley Field ANGB]]></name>
			<Point>
				<coordinates>-121.733055555556,42.1561111111111,0</coordinates>
			</Point>
			<Snippet></Snippet>
			<description><![CDATA[<br>Source: Wikipedia article <a href="https://en.wikipedia.org/wiki/List_of_United_States_Air_Force_installations#cite_ref-160">List of United States Air Force installations</a>]]></description>
		</Placemark>
		<Placemark>
			<name><![CDATA[Lincoln AFB]]></name>
			<Point>
				<coordinates>-96.7591666666667,40.8511111111111,0</coordinates>
			</Point>
			<Snippet></Snippet>
			<description><![CDATA[<br>Source: Wikipedia article <a href="https://en.wikipedia.org/wiki/List_of_United_States_Air_Force_installations#cite_ref-161">List of United States Air Force installations</a>]]></description>
		</Placemark>
		<Placemark>
			<name><![CDATA[Louisville ANGB]]></name>
			<Point>
				<coordinates>-85.7247222222222,38.1780555555556,0</coordinates>
			</Point>
			<Snippet></Snippet>
			<description><![CDATA[<br>Source: Wikipedia article <a href="https://en.wikipedia.org/wiki/List_of_United_States_Air_Force_installations#cite_ref-162">List of United States Air Force installations</a>]]></description>
		</Placemark>
		<Placemark>
			<name><![CDATA[Mansfield Lahm ANGB]]></name>
			<Point>
				<coordinates>-82.5166666666667,40.8136111111111,0</coordinates>
			</Point>
			<Snippet></Snippet>
			<description><![CDATA[<br>Source: Wikipedia article <a href="https://en.wikipedia.org/wiki/List_of_United_States_Air_Force_installations#cite_ref-163">List of United States Air Force installations</a>]]></description>
		</Placemark>
		<Placemark>
			<name><![CDATA[March ARB]]></name>
			<Point>
				<coordinates>-117.259444444444,33.8805555555556,0</coordinates>
			</Point>
			<Snippet></Snippet>
			<description><![CDATA[<br>Source: Wikipedia article <a href="https://en.wikipedia.org/wiki/List_of_United_States_Air_Force_installations#cite_ref-164">List of United States Air Force installations</a>]]></description>
		</Placemark>
		<Placemark>
			<name><![CDATA[McEntire ANGB]]></name>
			<Point>
				<coordinates>-80.8011111111111,33.9208333333333,0</coordinates>
			</Point>
			<Snippet></Snippet>
			<description><![CDATA[<br>Source: Wikipedia article <a href="https://en.wikipedia.org/wiki/List_of_United_States_Air_Force_installations#cite_ref-166">List of United States Air Force installations</a>]]></description>
		</Placemark>
		<Placemark>
			<name><![CDATA[McGhee Tyson ANGB]]></name>
			<Point>
				<coordinates>-83.9938888888889,35.8108333333333,0</coordinates>
			</Point>
			<Snippet></Snippet>
			<description><![CDATA[<br>Source: Wikipedia article <a href="https://en.wikipedia.org/wiki/List_of_United_States_Air_Force_installations#cite_ref-167">List of United States Air Force installations</a>]]></description>
		</Placemark>
		<Placemark>
			<name><![CDATA[Memphis ANGB]]></name>
			<Point>
				<coordinates>-89.9766666666667,35.0425,0</coordinates>
			</Point>
			<Snippet></Snippet>
			<description><![CDATA[<br>Source: Wikipedia article <a href="https://en.wikipedia.org/wiki/List_of_United_States_Air_Force_installations#cite_ref-168">List of United States Air Force installations</a>]]></description>
		</Placemark>
		<Placemark>
			<name><![CDATA[Minneapolis JARS]]></name>
			<Point>
				<coordinates>-93.2336111111111,44.8816666666667,0</coordinates>
			</Point>
			<Snippet></Snippet>
			<description><![CDATA[<br>Source: Wikipedia article <a href="https://en.wikipedia.org/wiki/List_of_United_States_Air_Force_installations#cite_ref-169">List of United States Air Force installations</a>]]></description>
		</Placemark>
		<Placemark>
			<name><![CDATA[Moffett Federal Airfield]]></name>
			<Point>
				<coordinates>-122.048333333333,37.415,0</coordinates>
			</Point>
			<Snippet></Snippet>
			<description><![CDATA[<br>Source: Wikipedia article <a href="https://en.wikipedia.org/wiki/List_of_United_States_Air_Force_installations#cite_ref-170">List of United States Air Force installations</a>]]></description>
		</Placemark>
		<Placemark>
			<name><![CDATA[NASJRB Fort Worth]]></name>
			<Point>
				<coordinates>-97.4416666666667,32.7691666666667,0</coordinates>
			</Point>
			<Snippet></Snippet>
			<description><![CDATA[<br>Source: Wikipedia article <a href="https://en.wikipedia.org/wiki/List_of_United_States_Air_Force_installations#cite_ref-171">List of United States Air Force installations</a>]]></description>
		</Placemark>
		<Placemark>
			<name><![CDATA[NASJRB Willow Grove]]></name>
			<Point>
				<coordinates>-75.1480555555556,40.1997222222222,0</coordinates>
			</Point>
			<Snippet></Snippet>
			<description><![CDATA[<br>Source: Wikipedia article <a href="https://en.wikipedia.org/wiki/List_of_United_States_Air_Force_installations#cite_ref-173">List of United States Air Force installations</a>]]></description>
		</Placemark>
		<Placemark>
			<name><![CDATA[NASJRB New Orleans]]></name>
			<Point>
				<coordinates>-90.035,29.8252777777778,0</coordinates>
			</Point>
			<Snippet></Snippet>
			<description><![CDATA[<br>Source: Wikipedia article <a href="https://en.wikipedia.org/wiki/List_of_United_States_Air_Force_installations#cite_ref-174">List of United States Air Force installations</a>]]></description>
		</Placemark>
		<Placemark>
			<name><![CDATA[New Castle ANGB]]></name>
			<Point>
				<coordinates>-75.5991666666667,39.6852777777778,0</coordinates>
			</Point>
			<Snippet></Snippet>
			<description><![CDATA[<br>Source: Wikipedia article <a href="https://en.wikipedia.org/wiki/List_of_United_States_Air_Force_installations#cite_ref-175">List of United States Air Force installations</a>]]></description>
		</Placemark>
		<Placemark>
			<name><![CDATA[Niagara Falls ARS]]></name>
			<Point>
				<coordinates>-78.9475,43.1133333333333,0</coordinates>
			</Point>
			<Snippet></Snippet>
			<description><![CDATA[<br>Source: Wikipedia article <a href="https://en.wikipedia.org/wiki/List_of_United_States_Air_Force_installations#cite_ref-176">List of United States Air Force installations</a>]]></description>
		</Placemark>
		<Placemark>
			<name><![CDATA[North Highlands ANGS]]></name>
			<Point>
				<coordinates>-121.4025,38.64,0</coordinates>
			</Point>
			<Snippet></Snippet>
			<description><![CDATA[<br>Source: Wikipedia article <a href="https://en.wikipedia.org/wiki/List_of_United_States_Air_Force_installations#cite_ref-177">List of United States Air Force installations</a>]]></description>
		</Placemark>
		<Placemark>
			<name><![CDATA[Otis ANGB]]></name>
			<Point>
				<coordinates>-70.5213888888889,41.6586111111111,0</coordinates>
			</Point>
			<Snippet></Snippet>
			<description><![CDATA[<br>Source: Wikipedia article <a href="https://en.wikipedia.org/wiki/List_of_United_States_Air_Force_installations#cite_ref-178">List of United States Air Force installations</a>]]></description>
		</Placemark>
		<Placemark>
			<name><![CDATA[Pease ANGB]]></name>
			<Point>
				<coordinates>-70.8233333333333,43.0780555555556,0</coordinates>
			</Point>
			<Snippet></Snippet>
			<description><![CDATA[<br>Source: Wikipedia article <a href="https://en.wikipedia.org/wiki/List_of_United_States_Air_Force_installations#cite_ref-179">List of United States Air Force installations</a>]]></description>
		</Placemark>
		<Placemark>
			<name><![CDATA[Memphis ANGB]]></name>
			<Point>
				<coordinates>-89.6955555555556,40.6605555555556,0</coordinates>
			</Point>
			<Snippet></Snippet>
			<description><![CDATA[<br>Source: Wikipedia article <a href="https://en.wikipedia.org/wiki/List_of_United_States_Air_Force_installations#cite_ref-180">List of United States Air Force installations</a>]]></description>
		</Placemark>
		<Placemark>
			<name><![CDATA[Pittsburgh ARS]]></name>
			<Point>
				<coordinates>-80.215475,40.4945805555556,0</coordinates>
			</Point>
			<Snippet></Snippet>
			<description><![CDATA[<br>Source: Wikipedia article <a href="https://en.wikipedia.org/wiki/List_of_United_States_Air_Force_installations#cite_ref-181">List of United States Air Force installations</a>]]></description>
		</Placemark>
		<Placemark>
			<name><![CDATA[Portland ANGB]]></name>
			<Point>
				<coordinates>-122.589722222222,45.5822222222222,0</coordinates>
			</Point>
			<Snippet></Snippet>
			<description><![CDATA[<br>Source: Wikipedia article <a href="https://en.wikipedia.org/wiki/List_of_United_States_Air_Force_installations#cite_ref-183">List of United States Air Force installations</a>]]></description>
		</Placemark>
		<Placemark>
			<name><![CDATA[Quonset Point ANGS]]></name>
			<Point>
				<coordinates>-71.4122222222222,41.5972222222222,0</coordinates>
			</Point>
			<Snippet></Snippet>
			<description><![CDATA[<br>Source: Wikipedia article <a href="https://en.wikipedia.org/wiki/List_of_United_States_Air_Force_installations#cite_ref-184">List of United States Air Force installations</a>]]></description>
		</Placemark>
		<Placemark>
			<name><![CDATA[Reno ANGB]]></name>
			<Point>
				<coordinates>-119.768055555556,39.4991666666667,0</coordinates>
			</Point>
			<Snippet></Snippet>
			<description><![CDATA[<br>Source: Wikipedia article <a href="https://en.wikipedia.org/wiki/List_of_United_States_Air_Force_installations#cite_ref-185">List of United States Air Force installations</a>]]></description>
		</Placemark>
		<Placemark>
			<name><![CDATA[Rickenbacker ANGB]]></name>
			<Point>
				<coordinates>-82.9466666666667,39.8136111111111,0</coordinates>
			</Point>
			<Snippet></Snippet>
			<description><![CDATA[<br>Source: Wikipedia article <a href="https://en.wikipedia.org/wiki/List_of_United_States_Air_Force_installations#cite_ref-186">List of United States Air Force installations</a>]]></description>
		</Placemark>
		<Placemark>
			<name><![CDATA[Griffiss AFB]]></name>
			<Point>
				<coordinates>-75.4096408333333,43.2308208333333,0</coordinates>
			</Point>
			<Snippet></Snippet>
			<description><![CDATA[<br>Source: Wikipedia article <a href="https://en.wikipedia.org/wiki/List_of_United_States_Air_Force_installations#cite_ref-187">List of United States Air Force installations</a>]]></description>
		</Placemark>
		<Placemark>
			<name><![CDATA[Rosecrans ANGB]]></name>
			<Point>
				<coordinates>-94.9097055555556,39.7719444444444,0</coordinates>
			</Point>
			<Snippet></Snippet>
			<description><![CDATA[<br>Source: Wikipedia article <a href="https://en.wikipedia.org/wiki/List_of_United_States_Air_Force_installations#cite_ref-188">List of United States Air Force installations</a>]]></description>
		</Placemark>
		<Placemark>
			<name><![CDATA[Salt Lake City ANGB]]></name>
			<Point>
				<coordinates>-111.977777777778,40.7883333333333,0</coordinates>
			</Point>
			<Snippet></Snippet>
			<description><![CDATA[<br>Source: Wikipedia article <a href="https://en.wikipedia.org/wiki/List_of_United_States_Air_Force_installations#cite_ref-189">List of United States Air Force installations</a>]]></description>
		</Placemark>
		<Placemark>
			<name><![CDATA[Savannah ANGB]]></name>
			<Point>
				<coordinates>-81.2019444444445,32.1275,0</coordinates>
			</Point>
			<Snippet></Snippet>
			<description><![CDATA[<br>Source: Wikipedia article <a href="https://en.wikipedia.org/wiki/List_of_United_States_Air_Force_installations#cite_ref-190">List of United States Air Force installations</a>]]></description>
		</Placemark>
		<Placemark>
			<name><![CDATA[Selfridge ANGB]]></name>
			<Point>
				<coordinates>-82.8355555555555,42.6083333333333,0</coordinates>
			</Point>
			<Snippet></Snippet>
			<description><![CDATA[<br>Source: Wikipedia article <a href="https://en.wikipedia.org/wiki/List_of_United_States_Air_Force_installations#cite_ref-191">List of United States Air Force installations</a>]]></description>
		</Placemark>
		<Placemark>
			<name><![CDATA[Shepherd Field ANGB]]></name>
			<Point>
				<coordinates>-77.9844444444444,39.4019444444444,0</coordinates>
			</Point>
			<Snippet></Snippet>
			<description><![CDATA[<br>Source: Wikipedia article <a href="https://en.wikipedia.org/wiki/List_of_United_States_Air_Force_installations#cite_ref-192">List of United States Air Force installations</a>]]></description>
		</Placemark>
		<Placemark>
			<name><![CDATA[Sioux City ANGB]]></name>
			<Point>
				<coordinates>-96.3719444444444,42.3983333333333,0</coordinates>
			</Point>
			<Snippet></Snippet>
			<description><![CDATA[<br>Source: Wikipedia article <a href="https://en.wikipedia.org/wiki/List_of_United_States_Air_Force_installations#cite_ref-193">List of United States Air Force installations</a>]]></description>
		</Placemark>
		<Placemark>
			<name><![CDATA[Sky Harbor ANGB]]></name>
			<Point>
				<coordinates>-112.011944444444,33.4266666666667,0</coordinates>
			</Point>
			<Snippet></Snippet>
			<description><![CDATA[<br>Source: Wikipedia article <a href="https://en.wikipedia.org/wiki/List_of_United_States_Air_Force_installations#cite_ref-194">List of United States Air Force installations</a>]]></description>
		</Placemark>
		<Placemark>
			<name><![CDATA[Springfield ANGB]]></name>
			<Point>
				<coordinates>-83.8402777777778,39.8402777777778,0</coordinates>
			</Point>
			<Snippet></Snippet>
			<description><![CDATA[<br>Source: Wikipedia article <a href="https://en.wikipedia.org/wiki/List_of_United_States_Air_Force_installations#cite_ref-195">List of United States Air Force installations</a>]]></description>
		</Placemark>
		<Placemark>
			<name><![CDATA[Stewart ANGB]]></name>
			<Point>
				<coordinates>-74.1047222222222,41.5041666666667,0</coordinates>
			</Point>
			<Snippet></Snippet>
			<description><![CDATA[<br>Source: Wikipedia article <a href="https://en.wikipedia.org/wiki/List_of_United_States_Air_Force_installations#cite_ref-196">List of United States Air Force installations</a>]]></description>
		</Placemark>
		<Placemark>
			<name><![CDATA[Stratton ANGB]]></name>
			<Point>
				<coordinates>-73.9225,42.8525,0</coordinates>
			</Point>
			<Snippet></Snippet>
			<description><![CDATA[<br>Source: Wikipedia article <a href="https://en.wikipedia.org/wiki/List_of_United_States_Air_Force_installations#cite_ref-197">List of United States Air Force installations</a>]]></description>
		</Placemark>
		<Placemark>
			<name><![CDATA[Terre Haute ANGB]]></name>
			<Point>
				<coordinates>-87.3075,39.4513888888889,0</coordinates>
			</Point>
			<Snippet></Snippet>
			<description><![CDATA[<br>Source: Wikipedia article <a href="https://en.wikipedia.org/wiki/List_of_United_States_Air_Force_installations#cite_ref-198">List of United States Air Force installations</a>]]></description>
		</Placemark>
		<Placemark>
			<name><![CDATA[Toledo ANGB]]></name>
			<Point>
				<coordinates>-83.8078333333333,41.5868055555556,0</coordinates>
			</Point>
			<Snippet></Snippet>
			<description><![CDATA[<br>Source: Wikipedia article <a href="https://en.wikipedia.org/wiki/List_of_United_States_Air_Force_installations#cite_ref-199">List of United States Air Force installations</a>]]></description>
		</Placemark>
		<Placemark>
			<name><![CDATA[Truax Field]]></name>
			<Point>
				<coordinates>-89.3375,43.1397222222222,0</coordinates>
			</Point>
			<Snippet></Snippet>
			<description><![CDATA[<br>Source: Wikipedia article <a href="https://en.wikipedia.org/wiki/List_of_United_States_Air_Force_installations#cite_ref-200">List of United States Air Force installations</a>]]></description>
		</Placemark>
		<Placemark>
			<name><![CDATA[Tucson ANGB]]></name>
			<Point>
				<coordinates>-110.930555555556,32.1152777777778,0</coordinates>
			</Point>
			<Snippet></Snippet>
			<description><![CDATA[<br>Source: Wikipedia article <a href="https://en.wikipedia.org/wiki/List_of_United_States_Air_Force_installations#cite_ref-201">List of United States Air Force installations</a>]]></description>
		</Placemark>
		<Placemark>
			<name><![CDATA[Tulsa ANGB]]></name>
			<Point>
				<coordinates>-95.8880555555556,36.1983333333333,0</coordinates>
			</Point>
			<Snippet></Snippet>
			<description><![CDATA[<br>Source: Wikipedia article <a href="https://en.wikipedia.org/wiki/List_of_United_States_Air_Force_installations#cite_ref-202">List of United States Air Force installations</a>]]></description>
		</Placemark>
		<Placemark>
			<name><![CDATA[Volk Field ANGB]]></name>
			<Point>
				<coordinates>-90.2597222222222,43.9363888888889,0</coordinates>
			</Point>
			<Snippet></Snippet>
			<description><![CDATA[<br>Source: Wikipedia article <a href="https://en.wikipedia.org/wiki/List_of_United_States_Air_Force_installations#cite_ref-203">List of United States Air Force installations</a>]]></description>
		</Placemark>
		<Placemark>
			<name><![CDATA[Warfield ANGB]]></name>
			<Point>
				<coordinates>-76.4137638888889,39.3256611111111,0</coordinates>
			</Point>
			<Snippet></Snippet>
			<description><![CDATA[<br>Source: Wikipedia article <a href="https://en.wikipedia.org/wiki/List_of_United_States_Air_Force_installations#cite_ref-204">List of United States Air Force installations</a>]]></description>
		</Placemark>
		<Placemark>
			<name><![CDATA[Westover ARB]]></name>
			<Point>
				<coordinates>-72.5347222222222,42.1938888888889,0</coordinates>
			</Point>
			<Snippet></Snippet>
			<description><![CDATA[<br>Source: Wikipedia article <a href="https://en.wikipedia.org/wiki/List_of_United_States_Air_Force_installations#cite_ref-205">List of United States Air Force installations</a>]]></description>
		</Placemark>
		<Placemark>
			<name><![CDATA[Will Rogers ANGB]]></name>
			<Point>
				<coordinates>-97.6008333333333,35.3930555555556,0</coordinates>
			</Point>
			<Snippet></Snippet>
			<description><![CDATA[<br>Source: Wikipedia article <a href="https://en.wikipedia.org/wiki/List_of_United_States_Air_Force_installations#cite_ref-207">List of United States Air Force installations</a>]]></description>
		</Placemark>
		<Placemark>
			<name><![CDATA[Youngstown ARS]]></name>
			<Point>
				<coordinates>-80.6790944444444,41.2607333333333,0</coordinates>
			</Point>
			<Snippet></Snippet>
			<description><![CDATA[<br>Source: Wikipedia article <a href="https://en.wikipedia.org/wiki/List_of_United_States_Air_Force_installations#cite_ref-208">List of United States Air Force installations</a>]]></description>
		</Placemark>
	</Folder>
</Document>
</kml>
